{
"type": "FeatureCollection",
"crs": { "type": "name", "properties": { "name": "urn:ogc:def:crs:OGC:1.3:CRS84" } },
                                                                                
"features": [
    { "type": "Feature", "properties": { "id": "940GZZLUGBY", "name": "Acton Central", "nlc_id": "1404", "lines": [ { "name": "London Overground", "opened": 2007 } ], "cartography": { "labelX": 30 }, "zone": "3" }, "geometry": { "type": "Point", "coordinates": [ -0.262832588842098, 51.508709096765848 ] } },
    { "type": "Feature", "properties": { "id": "940GZZLUHSN", "name": "Barking", "nlc_id": "7492", "lines": [ { "name": "London Overground", "opened": 2007 }, { "name": "National Rail" } ], "cartography": { "labelX": 30, "display_name": "Barking" }, "zone": "4" }, "geometry": { "type": "Point", "coordinates": [ 0.0809, 51.5392 ] } },
    { "type": "Feature", "properties": { "id": "940GZZLUKOY", "name": "Bethnal Green", "nlc_id": "6961", "lines": [ { "name": "London Overground", "opened": 2015 } ], "cartography": { "labelX": 30, "display_name": "Bethnal Green" }, "zone": "2" }, "geometry": { "type": "Point", "coordinates": [ -0.059428988758786, 51.523910296770531 ] } },
    { "type": "Feature", "properties": { "id": "940GZZLUKSL", "name": "Blackhorse Road", "nlc_id": "7400", "lines": [ { "name": "London Overground", "opened": 2007 } ], "cartography": { "labelX": 1, "labelY": -45, "display_name": "Blackhorse Road" }, "alt_id": "BHO", "zone": "3" }, "geometry": { "type": "Point", "coordinates": [ -0.041339070661268, 51.586635642661321 ] } },
    { "type": "Feature", "properties": { "id": "940GZZLUQPS", "name": "Brondesbury", "nlc_id": "1437", "lines": [ { "name": "London Overground", "opened": 2007 } ], "cartography": { "labelX": 30 }, "zone": "2" }, "geometry": { "type": "Point", "coordinates": [ -0.202323488802381, 51.545122796786934 ] } },
    { "type": "Feature", "properties": { "id": "940GZZLUNWY", "name": "Brondesbury Park", "nlc_id": "1438", "lines": [ { "name": "London Overground", "opened": 2007 } ], "cartography": { "labelX": -30 }, "zone": "2" }, "geometry": { "type": "Point", "coordinates": [ -0.21014798880738, 51.54069629678439 ] } },
    { "type": "Feature", "properties": { "id": "940GZZLURMD", "name": "Bruce Grove", "nlc_id": "6958", "lines": [ { "name": "London Overground", "opened": 2015 } ], "cartography": { "labelX": 30 }, "zone": "3" }, "geometry": { "type": "Point", "coordinates": [ -0.070081088730269, 51.593710696813488 ] } },
    { "type": "Feature", "properties": { "id": "910GSHPDSB", "name": "Bush Hill Park", "nlc_id": "6913", "lines": [ { "name": "London Overground", "opened": 2015 } ], "cartography": { "labelX": -30 }, "zone": "5" }, "geometry": { "type": "Point", "coordinates": [ -0.069034388707848, 51.641205696842619 ] } },
    { "type": "Feature", "properties": { "id": "940GZZLUSKT", "name": "Caledonian Road & Barnsbury", "nlc_id": "1439", "lines": [ { "name": "London Overground", "opened": 2007 } ], "cartography": { "labelX": 1, "labelY": 50, "display_name": "Caledonian Road\n& Barnsbury" }, "zone": "2" }, "geometry": { "type": "Point", "coordinates": [ -0.114988188770282, 51.543607096783958 ] } },
    { "type": "Feature", "properties": { "id": "910GUPMNSTR", "name": "Cambridge Heath", "nlc_id": "6962", "lines": [ { "name": "London Overground", "opened": 2015 } ], "cartography": { "labelX": 30, "display_name": "Cambridge\nHeath" }, "zone": "2" }, "geometry": { "type": "Point", "coordinates": [ -0.057592688754134, 51.532434796775696 ] } },
    { "type": "Feature", "properties": { "id": "940GZZLUWBN", "name": "Camden Road", "nlc_id": "1440", "lines": [ { "name": "London Overground", "opened": 2007 } ], "cartography": { "labelX": 25, "labelY": -20 }, "zone": "2" }, "geometry": { "type": "Point", "coordinates": [ -0.139464288780204, 51.541949196783541 ] } },
    { "type": "Feature", "properties": { "id": "940GZZLUWYC", "name": "Canonbury", "nlc_id": "1441", "lines": [ { "name": "London Overground", "opened": 2007, "nightopened": 2018 } ], "cartography": { "labelX": 1, "labelY": -35 }, "zone": "2" }, "geometry": { "type": "Point", "coordinates": [ -0.092683288759605, 51.548679996786511 ] } },
    { "type": "Feature", "properties": { "id": "910GANERLEY", "name": "Cheshunt", "nlc_id": "6814", "lines": [ { "name": "London Overground", "opened": 2015 }, { "name": "National Rail" }, { "name": "Crossrail 2", "opened": 2030 } ], "cartography": { "labelX": 30 }, "alt_id": "CHN", "zone": "8" }, "geometry": { "type": "Point", "coordinates": [ -0.023974688662454, 51.702870496879228 ] } },
    { "type": "Feature", "properties": { "id": "910GBARKING", "name": "Chingford", "nlc_id": "6914", "lines": [ { "name": "London Overground", "opened": 2015 } ], "cartography": { "labelX": 30 }, "zone": "5" }, "geometry": { "type": "Point", "coordinates": [ 0.010078511317856, 51.633222096835347 ] } },
    { "type": "Feature", "properties": { "id": "910GBLCHSRD", "name": "Clapton", "nlc_id": "6926", "lines": [ { "name": "London Overground", "opened": 2015 } ], "cartography": { "labelX": 30 }, "zone": "2\/3" }, "geometry": { "type": "Point", "coordinates": [ -0.056832088740239, 51.561662996793515 ] } },
    { "type": "Feature", "properties": { "id": "910GBRBY", "name": "Crouch Hill", "nlc_id": "7406", "lines": [ { "name": "London Overground", "opened": 2007 } ], "cartography": { "labelX": 25, "labelY": 20, "display_name": "Crouch\nHill" }, "zone": "3" }, "geometry": { "type": "Point", "coordinates": [ -0.11719538875827, 51.571278496800971 ] } },
    { "type": "Feature", "properties": { "id": "910GBRUCGRV", "name": "Dalston Kingsland", "nlc_id": "1429", "lines": [ { "name": "London Overground", "opened": 2007 } ], "cartography": { "labelX": 1, "labelY": -50, "display_name": "Dalston\nKingsland" }, "zone": "2" }, "geometry": { "type": "Point", "coordinates": [ -0.075823488753569, 51.548172796785764 ] } },
    { "type": "Feature", "properties": { "id": "910GBUSHEY", "name": "Edmonton Green", "nlc_id": "6941", "lines": [ { "name": "London Overground", "opened": 2015 }, { "name": "National Rail" } ], "cartography": { "labelX": 30 }, "zone": "4" }, "geometry": { "type": "Point", "coordinates": [ -0.061243388712466, 51.62497219683241 ] } },
    { "type": "Feature", "properties": { "id": "910GCNDAW", "name": "Enfield Town", "nlc_id": "6959", "lines": [ { "name": "London Overground", "opened": 2015 } ], "cartography": { "labelX": -30 }, "zone": "5" }, "geometry": { "type": "Point", "coordinates": [ -0.079386088706738, 51.651970596849502 ] } },
    { "type": "Feature", "properties": { "id": "910GCHINGFD", "name": "Finchley Road & Frognal", "nlc_id": "1445", "lines": [ { "name": "London Overground", "opened": 2007 } ], "cartography": { "labelX": -1, "labelY": -35 }, "zone": "2" }, "geometry": { "type": "Point", "coordinates": [ -0.1839536887932, 51.549989996789513 ] } },
    { "type": "Feature", "properties": { "id": "910GCLDNNRB", "name": "Gospel Oak", "nlc_id": "1409", "lines": [ { "name": "London Overground", "opened": 2007 } ], "cartography": { "labelX": 1, "labelY": -45, "display_name": "Gospel\nOak" }, "zone": "2" }, "geometry": { "type": "Point", "coordinates": [ -0.152152888778603, 51.555677396792255 ] } },
    { "type": "Feature", "properties": { "id": "910GCLPHHS", "name": "Gunnersbury", "nlc_id": "0591", "lines": [ { "name": "District" }, { "name": "London Overground", "opened": 2007 } ], "cartography": { "labelX": -30 }, "altmodeid": "910GGNRSBRY", "alt_id": 109, "zone": "3" }, "geometry": { "type": "Point", "coordinates": [ -0.275379788854744, 51.491614296755621 ] } },
    { "type": "Feature", "properties": { "id": "910GCLPHMJ1", "name": "Hackney Central", "nlc_id": "6977", "lines": [ { "name": "London Overground", "opened": 2007 } ], "cartography": { "labelX": 1, "labelY": 35 }, "zone": "2" }, "geometry": { "type": "Point", "coordinates": [ -0.057317188747216, 51.547062796784594 ] } },
    { "type": "Feature", "properties": { "id": "910GCMDNRD", "name": "Hackney Downs", "nlc_id": "6867", "lines": [ { "name": "London Overground", "opened": 2015 }, { "name": "National Rail" } ], "cartography": { "labelX": 30 }, "zone": "2" }, "geometry": { "type": "Point", "coordinates": [ -0.061151088747704, 51.549072096785913 ] } },
    { "type": "Feature", "properties": { "id": "910GCNNB", "name": "Hackney Wick", "nlc_id": "6978", "lines": [ { "name": "London Overground", "opened": 2007 } ], "cartography": { "labelX": -1, "labelY": 45, "display_name": "Hackney\nWick" }, "zone": "2" }, "geometry": { "type": "Point", "coordinates": [ -0.024834388736903, 51.543412996781505 ] } },
    { "type": "Feature", "properties": { "id": "910GCRPNDPK", "name": "Hampstead Heath", "nlc_id": "1413", "lines": [ { "name": "London Overground", "opened": 2007 } ], "cartography": { "labelX": 1, "labelY": -55, "display_name": "Hampstead\nHeath" }, "zone": "2" }, "geometry": { "type": "Point", "coordinates": [ -0.165335188783757, 51.555245996792294 ] } },
    { "type": "Feature", "properties": { "id": "910GCSEAH", "name": "Harringay Green Lanes", "nlc_id": "7401", "lines": [ { "name": "London Overground", "opened": 2007 } ], "cartography": { "labelX": -30, "labelY": -30, "display_name": "Harringay\nGreen Lanes" }, "zone": "3" }, "geometry": { "type": "Point", "coordinates": [ -0.097820988748259, 51.577242296804123 ] } },
    { "type": "Feature", "properties": { "id": "910GEDMNGRN", "name": "Highams Park", "nlc_id": "6919", "lines": [ { "name": "London Overground", "opened": 2015 } ], "cartography": { "labelX": 30 }, "zone": "4" }, "geometry": { "type": "Point", "coordinates": [ -0.000197988697262, 51.608917796820791 ] } },
    { "type": "Feature", "properties": { "id": "910GEMRSPKH", "name": "Highbury & Islington", "nlc_id": "6009", "lines": [ { "name": "London Overground", "opened": 2007, "nightopened": 2018 }, { "name": "National Rail" } ], "cartography": { "labelX": 30, "labelY": 20, "display_name": "Highbury &\nIslington" }, "alt_id": "HHY", "zone": "2" }, "geometry": { "type": "Point", "coordinates": [ -0.105, 51.54597 ] } },
    { "type": "Feature", "properties": { "id": "910GENFLDTN", "name": "Homerton", "nlc_id": "6979", "lines": [ { "name": "London Overground", "opened": 2007 } ], "cartography": { "labelX": 25, "labelY": -20 }, "zone": "2" }, "geometry": { "type": "Point", "coordinates": [ -0.042503688741728, 51.547069996784195 ] } },
    { "type": "Feature", "properties": { "id": "910GHACKNYC", "name": "Kensal Rise", "nlc_id": "1448", "lines": [ { "name": "London Overground", "opened": 2007 } ], "cartography": { "labelX": -25, "labelY": -20 }, "zone": "2" }, "geometry": { "type": "Point", "coordinates": [ -0.220225588814095, 51.534408096780751 ] } },
    { "type": "Feature", "properties": { "id": "910GHAGGERS", "name": "Kentish Town West", "nlc_id": "1449", "lines": [ { "name": "London Overground", "opened": 2007 } ], "cartography": { "labelX": 30 }, "zone": "2" }, "geometry": { "type": "Point", "coordinates": [ -0.146750388780558, 51.547075496786867 ] } },
    { "type": "Feature", "properties": { "id": "910GHEDSTNL", "name": "Kew Gardens", "nlc_id": "0621", "lines": [ { "name": "District" }, { "name": "London Overground", "opened": 2007 } ], "cartography": { "labelX": -30 }, "altmodeid": "910GKEWGRDN", "alt_id": 142, "zone": "3\/4" }, "geometry": { "type": "Point", "coordinates": [ -0.285013088865105, 51.477077296746891 ] } },
    { "type": "Feature", "properties": { "id": "910GHGHMSPK", "name": "Leyton Midland Road", "nlc_id": "7402", "lines": [ { "name": "London Overground", "opened": 2007 } ], "cartography": { "labelX": -30 }, "zone": "3" }, "geometry": { "type": "Point", "coordinates": [ -0.007268088718236, 51.569532196796921 ] } },
    { "type": "Feature", "properties": { "id": "910GHMPSTDH", "name": "Leytonstone High Road", "nlc_id": "7403", "lines": [ { "name": "London Overground", "opened": 2007 } ], "cartography": { "labelX": 30 }, "zone": "3" }, "geometry": { "type": "Point", "coordinates": [ 0.007712211284655, 51.563900096793041 ] } },
    { "type": "Feature", "properties": { "id": "910GHOMRTON", "name": "Liverpool Street", "nlc_id": "6965", "lines": [ { "name": "London Overground", "opened": 2015 }, { "name": "TfL Rail", "opened": 2015, "closed": 2017 }, { "name": "Crossrail", "opened": 2018 }, { "name": "National Rail" } ], "cartography": { "labelX": 1, "labelY": 45, "display_name": "Liverpool Street" }, "alt_id": "LST", "zone": "1" }, "geometry": { "type": "Point", "coordinates": [ -0.0807, 51.5181 ] } },
    { "type": "Feature", "properties": { "id": "910GHONROPK", "name": "London Fields", "nlc_id": "6966", "lines": [ { "name": "London Overground", "opened": 2015 } ], "cartography": { "labelX": 30, "display_name": "London\nFields" }, "zone": "2" }, "geometry": { "type": "Point", "coordinates": [ -0.057854888750166, 51.541157196781022 ] } },
    { "type": "Feature", "properties": { "id": "910GLONFLDS", "name": "Rectory Road", "nlc_id": "6967", "lines": [ { "name": "London Overground", "opened": 2015 } ], "cartography": { "labelX": -30, "display_name": "Rectory\nRoad" }, "zone": "2" }, "geometry": { "type": "Point", "coordinates": [ -0.068444588745959, 51.558638496791957 ] } },
    { "type": "Feature", "properties": { "id": "910GLYTNSHR", "name": "Richmond", "nlc_id": "0686", "lines": [ { "name": "District" }, { "name": "London Overground", "opened": 2007 } ], "cartography": { "labelX": -30 }, "altmodeid": "910GRICHMND", "alt_id": 213, "zone": "4" }, "geometry": { "type": "Point", "coordinates": [ -0.30118438887759, 51.463331296738772 ] } },
    { "type": "Feature", "properties": { "id": "910GNWCRELL", "name": "Seven Sisters", "nlc_id": "6931", "lines": [ { "name": "London Overground", "opened": 2015 }, { "name": "Crossrail 2", "opened": 2030 } ], "cartography": { "labelX": -30, "display_name": "Seven Sisters" }, "zone": "3" }, "geometry": { "type": "Point", "coordinates": [ -0.07508, 51.5832 ] } },
    { "type": "Feature", "properties": { "id": "910GRCTRYRD", "name": "Silver Street", "nlc_id": "6972", "lines": [ { "name": "London Overground", "opened": 2015 } ], "cartography": { "labelX": 30 }, "zone": "4" }, "geometry": { "type": "Point", "coordinates": [ -0.067203988719379, 51.614860596826382 ] } },
    { "type": "Feature", "properties": { "id": "910GROMFORD", "name": "South Acton", "nlc_id": "1452", "lines": [ { "name": "London Overground", "opened": 2007 } ], "cartography": { "labelX": 30, "display_name": "South\nActon" }, "zone": "3" }, "geometry": { "type": "Point", "coordinates": [ -0.270096588849068, 51.4995730967604 ] } },
    { "type": "Feature", "properties": { "id": "910GSBURY", "name": "South Tottenham", "nlc_id": "7404", "lines": [ { "name": "London Overground", "opened": 2007 } ], "cartography": { "labelX": 25, "labelY": 20 }, "zone": "3" }, "geometry": { "type": "Point", "coordinates": [ -0.071680788736998, 51.580505896805434 ] } },
    { "type": "Feature", "properties": { "id": "910GSEVNSIS", "name": "Southbury", "nlc_id": "6947", "lines": [ { "name": "London Overground", "opened": 2015 } ], "cartography": { "labelX": 30 }, "zone": "5" }, "geometry": { "type": "Point", "coordinates": [ -0.052530888698232, 51.648656796846709 ] } },
    { "type": "Feature", "properties": { "id": "910GSHADWEL", "name": "St. James Street", "nlc_id": "6973", "lines": [ { "name": "London Overground", "opened": 2015 } ], "cartography": { "labelX": -30 }, "zone": "3" }, "geometry": { "type": "Point", "coordinates": [ -0.032809788722342, 51.580980696804659 ] } },
    { "type": "Feature", "properties": { "id": "910GSHMPSTD", "name": "Stamford Hill", "nlc_id": "6968", "lines": [ { "name": "London Overground", "opened": 2015 } ], "cartography": { "labelX": 30, "display_name": "Stamford\nHill" }, "zone": "3" }, "geometry": { "type": "Point", "coordinates": [ -0.076681388741677, 51.574437696801851 ] } },
    { "type": "Feature", "properties": { "id": "910GSHRDHST", "name": "Stoke Newington", "nlc_id": "6934", "lines": [ { "name": "London Overground", "opened": 2015 } ], "cartography": { "labelX": -30, "display_name": "Stoke\nNewington" }, "zone": "2" }, "geometry": { "type": "Point", "coordinates": [ -0.072714488744558, 51.56506419679603 ] } },
    { "type": "Feature", "properties": { "id": "910GSTFD", "name": "Stratford", "nlc_id": "6969", "lines": [ { "name": "London Overground", "opened": 2007 }, { "name": "TfL Rail", "opened": 2015, "closed": 2017 }, { "name": "Crossrail", "opened": 2018 }, { "name": "National Rail" } ], "cartography": { "labelX": 20, "labelY": 25, "display_name": "Stratford" }, "alt_id": "SRA", "zone": "2\/3" }, "geometry": { "type": "Point", "coordinates": [ -0.003910894500122, 51.542369735317187 ] } },
    { "type": "Feature", "properties": { "id": "910GSTMFDHL", "name": "Theobalds Grove", "nlc_id": "6949", "lines": [ { "name": "London Overground", "opened": 2015 } ], "cartography": { "labelX": 30 }, "alt_id": "TEO", "zone": "7" }, "geometry": { "type": "Point", "coordinates": [ -0.035651788671846, 51.692003596872894 ] } },
    { "type": "Feature", "properties": { "id": "910GSTOTNHM", "name": "Turkey Street", "nlc_id": "6952", "lines": [ { "name": "London Overground", "opened": 2015 } ], "cartography": { "labelX": 30 }, "zone": "6" }, "geometry": { "type": "Point", "coordinates": [ -0.047226288685127, 51.672663196861315 ] } },
    { "type": "Feature", "properties": { "id": "910GSYDENHM", "name": "Upper Holloway", "nlc_id": "1524", "lines": [ { "name": "London Overground", "opened": 2007 } ], "cartography": { "labelX": 25, "labelY": 20, "display_name": "Upper\nHolloway" }, "zone": "2" }, "geometry": { "type": "Point", "coordinates": [ -0.129485388766418, 51.563625396796574 ] } },
    { "type": "Feature", "properties": { "id": "910GTHBLDSG", "name": "Walthamstow Central", "nlc_id": "6953", "lines": [ { "name": "London Overground", "opened": 2015 } ], "cartography": { "labelX": 1, "labelY": -45, "display_name": "Walthamstow Central" }, "alt_id": "WHC", "zone": "3" }, "geometry": { "type": "Point", "coordinates": [ -0.020010059897524, 51.582930332767752 ] } },
    { "type": "Feature", "properties": { "id": "910GTURKYST", "name": "Walthamstow Queens Road", "nlc_id": "7407", "lines": [ { "name": "London Overground", "opened": 2007 } ], "cartography": { "labelX": 25, "labelY": 20 }, "zone": "3" }, "geometry": { "type": "Point", "coordinates": [ -0.02369608871872, 51.581513596804726 ] } },
    { "type": "Feature", "properties": { "id": "910GWAPPING", "name": "Wanstead Park", "nlc_id": "7408", "lines": [ { "name": "London Overground", "opened": 2007 } ], "cartography": { "labelX": 1, "labelY": -45 }, "zone": "3" }, "geometry": { "type": "Point", "coordinates": [ 0.026333811285793, 51.551699996785061 ] } },
    { "type": "Feature", "properties": { "id": "910GWHHRTLA", "name": "West Hampstead", "nlc_id": "1421", "lines": [ { "name": "London Overground", "opened": 2007 } ], "cartography": { "labelX": -1, "labelY": -35 }, "zone": "2" }, "geometry": { "type": "Point", "coordinates": [ -0.19203, 51.54730 ] } },
    { "type": "Feature", "properties": { "id": "910GWHMDSTD", "name": "White Hart Lane", "nlc_id": "6956", "lines": [ { "name": "London Overground", "opened": 2015 } ], "cartography": { "labelX": 30 }, "zone": "3" }, "geometry": { "type": "Point", "coordinates": [ -0.070949188725593, 51.604479796820094 ] } },
    { "type": "Feature", "properties": { "id": "910GWLTHQRD", "name": "Willesden Junction", "nlc_id": "0766", "lines": [ { "name": "Bakerloo" }, { "name": "London Overground", "opened": 2007 } ], "cartography": { "labelX": -25, "labelY": 20 }, "altmodeid": "910GWLSDJHL", "alt_id": 298, "altmodeid2": "910GWLSDNJL", "zone": "2\/3" }, "geometry": { "type": "Point", "coordinates": [ -0.243179588823788, 51.532248696779902 ] } },
    { "type": "Feature", "properties": { "id": "910GWNDSWRD", "name": "Wood Street", "nlc_id": "6954", "lines": [ { "name": "London Overground", "opened": 2015 } ], "cartography": { "labelX": 30 }, "zone": "4" }, "geometry": { "type": "Point", "coordinates": [ -0.002345788708442, 51.586631996807228 ] } },
    { "type": "Feature", "properties": { "id": "910GWNSTDPK", "name": "Woodgrange Park", "nlc_id": "7467", "lines": [ { "name": "London Overground", "opened": 2007 } ], "cartography": { "labelX": 30 }, "zone": "3\/4" }, "geometry": { "type": "Point", "coordinates": [ 0.044549017253541, 51.549183510322642 ] } }
]
}
